[
{
    "pk": 6, 
    "model": "bier.kiosk", 
    "fields": {
        "city": "Dortmund", 
        "description": "", 
        "created": null, 
        "number": 156, 
        "geo_lat": "51.5313197000", 
        "geo_long": "7.4551890000", 
        "street": "Uhlandstra\u00dfe", 
        "is_valid_address": true, 
        "owner": "", 
        "zip_code": "44147", 
        "name": "Uhlandstra\u00dfe 156"
    }
},
{
    "pk": 9, 
    "model": "bier.kiosk", 
    "fields": {
        "city": "Dortmund", 
        "description": "", 
        "created": "2013-03-29T20:22:22Z", 
        "number": 329, 
        "geo_lat": "51.5242362000", 
        "geo_long": "7.4453596000", 
        "street": "Mallinckrodtstra\u00dfe", 
        "is_valid_address": true, 
        "owner": "", 
        "zip_code": "44147", 
        "name": "Mallinckrodtstra\u00dfe 329"
    }
},
{
    "pk": 10, 
    "model": "bier.kiosk", 
    "fields": {
        "city": "Dortmund", 
        "description": "", 
        "created": "2013-03-29T20:37:28Z", 
        "number": 118, 
        "geo_lat": "51.5244502000", 
        "geo_long": "7.4626928000", 
        "street": "Mallinckrodtstra\u00dfe", 
        "is_valid_address": true, 
        "owner": "", 
        "zip_code": "44145", 
        "name": "Mallinckrodtstra\u00dfe 118"
    }
},
{
    "pk": 18, 
    "model": "bier.kiosk", 
    "fields": {
        "city": "Dortmund", 
        "description": "", 
        "created": "2013-03-30T13:20:54Z", 
        "number": 39, 
        "geo_lat": "51.5165933000", 
        "geo_long": "7.4653962000", 
        "street": "Br\u00fcckstra\u00dfe", 
        "is_valid_address": true, 
        "owner": null, 
        "zip_code": "44135", 
        "name": "Br\u00fcckstra\u00dfe 39"
    }
},
{
    "pk": 29, 
    "model": "bier.kiosk", 
    "fields": {
        "city": "Dortmund", 
        "description": "", 
        "created": "2013-03-30T19:59:48Z", 
        "number": 201, 
        "geo_lat": "51.5140900000", 
        "geo_long": "7.4978900000", 
        "street": "Kaiserstra\u00dfe", 
        "is_valid_address": true, 
        "owner": "", 
        "zip_code": "44143", 
        "name": "Kaiserstra\u00dfe 201"
    }
},
{
    "pk": 33, 
    "model": "bier.kiosk", 
    "fields": {
        "city": "Dortmund", 
        "description": "", 
        "created": "2013-04-15T20:31:30Z", 
        "number": 20, 
        "geo_lat": "51.5183680000", 
        "geo_long": "7.4691892000", 
        "street": "Bornstra\u00dfe", 
        "is_valid_address": true, 
        "owner": "", 
        "zip_code": "44135", 
        "name": "Bornstra\u00dfe 20"
    }
},
{
    "pk": 34, 
    "model": "bier.kiosk", 
    "fields": {
        "city": "Dortmund", 
        "description": "", 
        "created": "2013-04-22T16:54:57Z", 
        "number": 24, 
        "geo_lat": "51.5282551000", 
        "geo_long": "7.4661860000", 
        "street": "Bergmannstra\u00dfe", 
        "is_valid_address": true, 
        "owner": "", 
        "zip_code": "44145", 
        "name": "Bergmannstra\u00dfe 24"
    }
},
{
    "pk": 35, 
    "model": "bier.kiosk", 
    "fields": {
        "city": "Dortmund", 
        "description": "", 
        "created": "2013-04-22T17:40:32Z", 
        "number": 13, 
        "geo_lat": "51.5250831000", 
        "geo_long": "7.4549253000", 
        "street": "Herderstra\u00dfe", 
        "is_valid_address": true, 
        "owner": "", 
        "zip_code": "44147", 
        "name": "Herderstrasse 13"
    }
},
{
    "pk": 36, 
    "model": "bier.kiosk", 
    "fields": {
        "city": "Dortmund", 
        "description": "", 
        "created": "2013-04-22T17:41:53Z", 
        "number": 28, 
        "geo_lat": "51.5261594000", 
        "geo_long": "7.4544824000", 
        "street": "Herderstra\u00dfe", 
        "is_valid_address": true, 
        "owner": "", 
        "zip_code": "44147", 
        "name": "Herderstra\u00dfe 28"
    }
},
{
    "pk": 37, 
    "model": "bier.kiosk", 
    "fields": {
        "city": "Dortmund", 
        "description": "", 
        "created": "2013-04-22T17:42:47Z", 
        "number": 14, 
        "geo_lat": "51.5261930000", 
        "geo_long": "7.4573106000", 
        "street": "Haydnstra\u00dfe", 
        "is_valid_address": true, 
        "owner": "", 
        "zip_code": "44147", 
        "name": "Haydnstra\u00dfe 14"
    }
},
{
    "pk": 38, 
    "model": "bier.kiosk", 
    "fields": {
        "city": "Dortmund", 
        "description": "", 
        "created": "2013-04-22T17:43:07Z", 
        "number": 50, 
        "geo_lat": "51.5250769000", 
        "geo_long": "7.4572675000", 
        "street": "Schillerstra\u00dfe", 
        "is_valid_address": true, 
        "owner": "", 
        "zip_code": "44147", 
        "name": "Schillerstra\u00dfe 50"
    }
},
{
    "pk": 39, 
    "model": "bier.kiosk", 
    "fields": {
        "city": "Dortmund", 
        "description": "", 
        "created": "2013-04-22T17:44:29Z", 
        "number": 151, 
        "geo_lat": "51.5245144000", 
        "geo_long": "7.4585286000", 
        "street": "Mallinckrodtstra\u00dfe", 
        "is_valid_address": true, 
        "owner": "", 
        "zip_code": "44147", 
        "name": "Mallinckrodtstra\u00dfe 151"
    }
},
{
    "pk": 40, 
    "model": "bier.kiosk", 
    "fields": {
        "city": "Dortmund", 
        "description": "", 
        "created": "2013-04-22T17:45:11Z", 
        "number": 101, 
        "geo_lat": "51.5249774000", 
        "geo_long": "7.4638546000", 
        "street": "Mallinckrodtstra\u00dfe", 
        "is_valid_address": true, 
        "owner": "", 
        "zip_code": "44145", 
        "name": "Mallinckrodtstra\u00dfe 101"
    }
},
{
    "pk": 41, 
    "model": "bier.kiosk", 
    "fields": {
        "city": "Dortmund", 
        "description": "", 
        "created": "2013-04-22T17:45:40Z", 
        "number": 41, 
        "geo_lat": "51.5261182000", 
        "geo_long": "7.4609177000", 
        "street": "Haydnstra\u00dfe", 
        "is_valid_address": true, 
        "owner": "", 
        "zip_code": "44145", 
        "name": "Haydnstra\u00dfe 41"
    }
},
{
    "pk": 42, 
    "model": "bier.kiosk", 
    "fields": {
        "city": "Dortmund", 
        "description": "", 
        "created": "2013-04-22T17:46:28Z", 
        "number": 149, 
        "geo_lat": "51.5273324000", 
        "geo_long": "7.4606535000", 
        "street": "M\u00fcnsterstra\u00dfe", 
        "is_valid_address": true, 
        "owner": "", 
        "zip_code": "44145", 
        "name": "M\u00fcnsterstra\u00dfe 149"
    }
},
{
    "pk": 43, 
    "model": "bier.kiosk", 
    "fields": {
        "city": "Dortmund", 
        "description": "", 
        "created": "2013-04-22T17:47:08Z", 
        "number": 26, 
        "geo_lat": "51.5268235000", 
        "geo_long": "7.4622964000", 
        "street": "Schubertstra\u00dfe", 
        "is_valid_address": true, 
        "owner": "", 
        "zip_code": "44145", 
        "name": "Schubertstra\u00dfe 26"
    }
},
{
    "pk": 44, 
    "model": "bier.kiosk", 
    "fields": {
        "city": "Dortmund", 
        "description": "", 
        "created": "2013-04-22T17:47:48Z", 
        "number": 15, 
        "geo_lat": "51.5272355000", 
        "geo_long": "7.4639079000", 
        "street": "Lortzingstra\u00dfe", 
        "is_valid_address": true, 
        "owner": "", 
        "zip_code": "44145", 
        "name": "Lortzingstra\u00dfe 15"
    }
},
{
    "pk": 45, 
    "model": "bier.kiosk", 
    "fields": {
        "city": "Dortmund", 
        "description": "", 
        "created": "2013-04-22T17:48:38Z", 
        "number": 6, 
        "geo_lat": "51.5266600000", 
        "geo_long": "7.4638900000", 
        "street": "Lortzingstra\u00dfe", 
        "is_valid_address": true, 
        "owner": "", 
        "zip_code": "44145", 
        "name": "Lortzingstra\u00dfe 6"
    }
},
{
    "pk": 46, 
    "model": "bier.kiosk", 
    "fields": {
        "city": "Dortmund", 
        "description": "", 
        "created": "2013-04-22T17:49:01Z", 
        "number": 42, 
        "geo_lat": "51.5279436000", 
        "geo_long": "7.4635652000", 
        "street": "Burgholzstra\u00dfe", 
        "is_valid_address": true, 
        "owner": "", 
        "zip_code": "44145", 
        "name": "Burgholzstra\u00dfe 42"
    }
},
{
    "pk": 47, 
    "model": "bier.kiosk", 
    "fields": {
        "city": "Dortmund", 
        "description": "", 
        "created": "2013-04-22T17:49:55Z", 
        "number": 25, 
        "geo_lat": "51.5282746000", 
        "geo_long": "7.4652706000", 
        "street": "Braunschweiger Stra\u00dfe", 
        "is_valid_address": true, 
        "owner": "", 
        "zip_code": "44145", 
        "name": "Braunschweigerstra\u00dfe 25"
    }
},
{
    "pk": 48, 
    "model": "bier.kiosk", 
    "fields": {
        "city": "Dortmund", 
        "description": "", 
        "created": "2013-04-22T17:51:24Z", 
        "number": 166, 
        "geo_lat": "51.5294396000", 
        "geo_long": "7.4595766000", 
        "street": "M\u00fcnsterstra\u00dfe", 
        "is_valid_address": true, 
        "owner": "", 
        "zip_code": "44145", 
        "name": "M\u00fcnsterstra\u00dfe 166"
    }
},
{
    "pk": 49, 
    "model": "bier.kiosk", 
    "fields": {
        "city": "Dortmund", 
        "description": "", 
        "created": "2013-04-22T17:52:03Z", 
        "number": 126, 
        "geo_lat": "51.5285500000", 
        "geo_long": "7.4557400000", 
        "street": "Uhlandstra\u00dfe", 
        "is_valid_address": true, 
        "owner": "", 
        "zip_code": "44147", 
        "name": "Uhlandstra\u00dfe 126"
    }
},
{
    "pk": 50, 
    "model": "bier.kiosk", 
    "fields": {
        "city": "Dortmund", 
        "description": "", 
        "created": "2013-04-22T17:53:07Z", 
        "number": 251, 
        "geo_lat": "51.5331697000", 
        "geo_long": "7.4563736000", 
        "street": "M\u00fcnsterstra\u00dfe", 
        "is_valid_address": true, 
        "owner": "", 
        "zip_code": "44145", 
        "name": "M\u00fcnsterstra\u00dfe 251"
    }
},
{
    "pk": 51, 
    "model": "bier.kiosk", 
    "fields": {
        "city": "Dortmund", 
        "description": "", 
        "created": "2013-04-22T17:53:53Z", 
        "number": 34, 
        "geo_lat": "51.5319000000", 
        "geo_long": "7.4614300000", 
        "street": "Gut-Heil-Stra\u00dfe", 
        "is_valid_address": true, 
        "owner": "", 
        "zip_code": "44145", 
        "name": "Gut-Heil-Strasse 34"
    }
},
{
    "pk": 52, 
    "model": "bier.kiosk", 
    "fields": {
        "city": "Dortmund", 
        "description": "", 
        "created": "2013-04-22T17:54:25Z", 
        "number": 144, 
        "geo_lat": "51.5297686000", 
        "geo_long": "7.4557227000", 
        "street": "Uhlandstra\u00dfe", 
        "is_valid_address": true, 
        "owner": "", 
        "zip_code": "44147", 
        "name": "Uhlandstrasse 144"
    }
},
{
    "pk": 53, 
    "model": "bier.kiosk", 
    "fields": {
        "city": "Dortmund", 
        "description": "", 
        "created": "2013-04-22T17:54:51Z", 
        "number": 215, 
        "geo_lat": "51.5308850000", 
        "geo_long": "7.4515670000", 
        "street": "Sch\u00fctzenstra\u00dfe", 
        "is_valid_address": true, 
        "owner": "", 
        "zip_code": "44147", 
        "name": "Sch\u00fctzenstra\u00dfe 215"
    }
},
{
    "pk": 54, 
    "model": "bier.kiosk", 
    "fields": {
        "city": "Dortmund", 
        "description": "", 
        "created": "2013-04-22T17:55:15Z", 
        "number": 169, 
        "geo_lat": "51.5324300000", 
        "geo_long": "7.4549200000", 
        "street": "Uhlandstra\u00dfe", 
        "is_valid_address": true, 
        "owner": "", 
        "zip_code": "44147", 
        "name": "Uhlandstrasse 169"
    }
},
{
    "pk": 55, 
    "model": "bier.kiosk", 
    "fields": {
        "city": "Musterstadt", 
        "description": "", 
        "created": "2013-05-15T22:10:26Z", 
        "number": 123, 
        "geo_lat": "50.5100000000", 
        "geo_long": "7.4900000000", 
        "street": "Musterstra\u00dfe", 
        "is_valid_address": true, 
        "owner": "", 
        "zip_code": "12345", 
        "name": "Musterstra\u00dfe 123"
    }
},
{
    "pk": 56, 
    "model": "bier.kiosk", 
    "fields": {
        "city": "Dortmund", 
        "description": null, 
        "created": "2013-06-02T15:18:24Z", 
        "number": 120, 
        "geo_lat": "51.5244680000", 
        "geo_long": "7.4624279000", 
        "street": "Mallinckrodtstra\u00dfe", 
        "is_valid_address": false, 
        "owner": "", 
        "zip_code": "44145", 
        "name": "Mallinckrodtstra\u00dfe 120"
    }
},
{
    "pk": 5, 
    "model": "bier.beer", 
    "fields": {
        "brew": "pils", 
        "brand": "Brinkhoff's Brauerei", 
        "name": " Brinkhoff's ", 
        "location": " Dortmund"
    }
},
{
    "pk": 6, 
    "model": "bier.beer", 
    "fields": {
        "brew": "pils", 
        "brand": "Hansa", 
        "name": "Hansa Pils", 
        "location": "Dortmund"
    }
},
{
    "pk": 7, 
    "model": "bier.beer", 
    "fields": {
        "brew": "pils", 
        "brand": "Hansa", 
        "name": "Hansa Export", 
        "location": "Dortmund"
    }
},
{
    "pk": 8, 
    "model": "bier.beer", 
    "fields": {
        "brew": "pils", 
        "brand": "Kronen", 
        "name": "Kronen Pils", 
        "location": "Dortmund"
    }
},
{
    "pk": 9, 
    "model": "bier.beer", 
    "fields": {
        "brew": "pils", 
        "brand": "Kronen", 
        "name": "Kronen Export", 
        "location": "Dortmund"
    }
},
{
    "pk": 10, 
    "model": "bier.beer", 
    "fields": {
        "brew": "pils", 
        "brand": "Stifts", 
        "name": "Stifts Pils", 
        "location": "Dortmund"
    }
},
{
    "pk": 11, 
    "model": "bier.beer", 
    "fields": {
        "brew": "pils", 
        "brand": "Thier", 
        "name": "Thier Pils", 
        "location": "Dortmund"
    }
},
{
    "pk": 12, 
    "model": "bier.beer", 
    "fields": {
        "brew": "pils", 
        "brand": "Union", 
        "name": "Siegel Pils", 
        "location": "Dortmund"
    }
},
{
    "pk": 13, 
    "model": "bier.beer", 
    "fields": {
        "brew": "pils", 
        "brand": "H\u00f6vels", 
        "name": "H\u00f6vels Original", 
        "location": "Dortmund"
    }
},
{
    "pk": 14, 
    "model": "bier.beer", 
    "fields": {
        "brew": "pils", 
        "brand": "Clarissen", 
        "name": "Clarissen Alt", 
        "location": "Dortmund"
    }
},
{
    "pk": 15, 
    "model": "bier.beer", 
    "fields": {
        "brew": "pils", 
        "brand": "Fiege", 
        "name": " Fiege Pils", 
        "location": "Bochum"
    }
},
{
    "pk": 16, 
    "model": "bier.beer", 
    "fields": {
        "brew": "pils", 
        "brand": "Drinks Union", 
        "name": "Breznak", 
        "location": "\u00dast\u00ed nad Labem, B\u00f6hmen, CZ"
    }
},
{
    "pk": 17, 
    "model": "bier.beer", 
    "fields": {
        "brew": "pils", 
        "brand": "B\u00f6lkstoff Vertriebs GmbH", 
        "name": "B\u00f6lkstoff", 
        "location": "Flensburg"
    }
},
{
    "pk": 18, 
    "model": "bier.beer", 
    "fields": {
        "brew": "weizen", 
        "brand": "Carlsberg", 
        "name": "Carlsberg Elephant", 
        "location": "Hamburg"
    }
},
{
    "pk": 19, 
    "model": "bier.beer", 
    "fields": {
        "brew": "pils", 
        "brand": "Plze\u0148sk\u00fd Prazdroj", 
        "name": "Gambrinus", 
        "location": "Pilsen, CZ"
    }
},
{
    "pk": 20, 
    "model": "bier.beer", 
    "fields": {
        "brew": "pils", 
        "brand": "Plze\u0148sk\u00fd Prazdroj", 
        "name": "Pilsener Urquell", 
        "location": "Pilsen, CZ"
    }
},
{
    "pk": 21, 
    "model": "bier.beer", 
    "fields": {
        "brew": "pils", 
        "brand": "Brauerei Beck", 
        "name": "Beck's", 
        "location": "Bremen"
    }
},
{
    "pk": 22, 
    "model": "bier.beer", 
    "fields": {
        "brew": "pils", 
        "brand": "Wernesgr\u00fcner Brauerei", 
        "name": "Wernesgr\u00fcner", 
        "location": "Wernesgr\u00fcn"
    }
},
{
    "pk": 23, 
    "model": "bier.beer", 
    "fields": {
        "brew": "pils", 
        "brand": "Alg\u00e4uer Brauhaus AG", 
        "name": "Altenm\u00fcnster", 
        "location": "Kempten"
    }
},
{
    "pk": 24, 
    "model": "bier.beer", 
    "fields": {
        "brew": "pils", 
        "brand": "Privatbrauerei Bolten", 
        "name": "Bolten Helles", 
        "location": "Korschenbroich"
    }
},
{
    "pk": 25, 
    "model": "bier.beer", 
    "fields": {
        "brew": "pils", 
        "brand": "Guinness", 
        "name": "Kilkenny", 
        "location": "Dublin, IRL"
    }
},
{
    "pk": 26, 
    "model": "bier.beer", 
    "fields": {
        "brew": "pils", 
        "brand": "Guinness", 
        "name": "Guinness Extra Stout", 
        "location": "Dublin, IRL"
    }
},
{
    "pk": 27, 
    "model": "bier.beer", 
    "fields": {
        "brew": "pils", 
        "brand": "K\u00f6stritzer Schwarzbierbrauerei", 
        "name": "K\u00f6stritzer", 
        "location": "Bad K\u00f6stritz"
    }
},
{
    "pk": 28, 
    "model": "bier.beer", 
    "fields": {
        "brew": "pils", 
        "brand": "\u017bywiec Brauerei", 
        "name": "Warka", 
        "location": "\u017bywiec, PL"
    }
},
{
    "pk": 29, 
    "model": "bier.beer", 
    "fields": {
        "brew": "pils", 
        "brand": "Bud\u011bjovick\u00fd Budvar", 
        "name": "Budweiser Budvar", 
        "location": "Budweis, CZ"
    }
},
{
    "pk": 30, 
    "model": "bier.beer", 
    "fields": {
        "brew": "pils", 
        "brand": "Royal Unibrew", 
        "name": "Faxe", 
        "location": "Fakse, DEN"
    }
},
{
    "pk": 31, 
    "model": "bier.beer", 
    "fields": {
        "brew": "pils", 
        "brand": "Duff", 
        "name": "Duff", 
        "location": "Gotha"
    }
},
{
    "pk": 32, 
    "model": "bier.beer", 
    "fields": {
        "brew": "pils", 
        "brand": "Sagres", 
        "name": "Sagres", 
        "location": "Vila Franca de Xira, P"
    }
},
{
    "pk": 33, 
    "model": "bier.beer", 
    "fields": {
        "brew": "pils", 
        "brand": "L\u00f6wenbr\u00e4u", 
        "name": "L\u00f6wenbr\u00e4u", 
        "location": "M\u00fcnchen"
    }
},
{
    "pk": 34, 
    "model": "bier.beer", 
    "fields": {
        "brew": "pils", 
        "brand": "Warsteiner Brauerei", 
        "name": "Warsteiner", 
        "location": "Warstein"
    }
},
{
    "pk": 35, 
    "model": "bier.beer", 
    "fields": {
        "brew": "pils", 
        "brand": "Bayreuther Bierbrauerei AG", 
        "name": "Zwick'l Kellerbier", 
        "location": "Bayreuth"
    }
},
{
    "pk": 36, 
    "model": "bier.beer", 
    "fields": {
        "brew": "pils", 
        "brand": "Weisses Br\u00e4uhaus G. Schneider & Sohn GmbH", 
        "name": "Schneider Weisse", 
        "location": "M\u00fcnchen"
    }
},
{
    "pk": 37, 
    "model": "bier.beer", 
    "fields": {
        "brew": "pils", 
        "brand": "Pott's Brauerei", 
        "name": "Pott's Landbier", 
        "location": "Oelden"
    }
},
{
    "pk": 38, 
    "model": "bier.beer", 
    "fields": {
        "brew": "pils", 
        "brand": "Holsten-Brauerei", 
        "name": "Holsten", 
        "location": "Hamburg"
    }
},
{
    "pk": 39, 
    "model": "bier.beer", 
    "fields": {
        "brew": "pils", 
        "brand": "Brauerei K\u00f6nigshof", 
        "name": "Landf\u00fcrst", 
        "location": "Krefeld Fischeln"
    }
},
{
    "pk": 40, 
    "model": "bier.beer", 
    "fields": {
        "brew": "pils", 
        "brand": "Holsten Brauerei", 
        "name": "Astra", 
        "location": "Hamburg"
    }
},
{
    "pk": 41, 
    "model": "bier.beer", 
    "fields": {
        "brew": "pils", 
        "brand": "Holsten Brauerei", 
        "name": "Astra Rotlicht", 
        "location": "Hamburg"
    }
},
{
    "pk": 42, 
    "model": "bier.beer", 
    "fields": {
        "brew": "pils", 
        "brand": "Anadolu Efes", 
        "name": "Efes", 
        "location": "\u0130zmir, T\u00dcR"
    }
},
{
    "pk": 43, 
    "model": "bier.beer", 
    "fields": {
        "brew": "pils", 
        "brand": "Brasserie Fischer", 
        "name": "Desperados", 
        "location": "Schiltigheim"
    }
},
{
    "pk": 44, 
    "model": "bier.beer", 
    "fields": {
        "brew": "pils", 
        "brand": "Bitburger Brauerei", 
        "name": "Bitburger", 
        "location": "Bitburg"
    }
},
{
    "pk": 45, 
    "model": "bier.beer", 
    "fields": {
        "brew": "pils", 
        "brand": "Kompania Piwowarska", 
        "name": "Lech", 
        "location": "Poznan, PL"
    }
},
{
    "pk": 46, 
    "model": "bier.beer", 
    "fields": {
        "brew": "pils", 
        "brand": "Browary Warka", 
        "name": "Strong", 
        "location": "Saybusch, Oberschlesien, PL"
    }
},
{
    "pk": 47, 
    "model": "bier.beer", 
    "fields": {
        "brew": "pils", 
        "brand": "Tyskie Brauerei", 
        "name": "Tyskie", 
        "location": "Tychy, Oberschlesien, PL"
    }
},
{
    "pk": 48, 
    "model": "bier.beer", 
    "fields": {
        "brew": "pils", 
        "brand": "Oettinger Brauerei", 
        "name": "Oettinger", 
        "location": "Oetting"
    }
},
{
    "pk": 49, 
    "model": "bier.beer", 
    "fields": {
        "brew": "pils", 
        "brand": "Privatbrauerei Jacob Stauder ", 
        "name": "Stauder", 
        "location": "Essen"
    }
},
{
    "pk": 50, 
    "model": "bier.beer", 
    "fields": {
        "brew": "pils", 
        "brand": "Privatbrauerei Br\u00fcgerbr\u00e4u", 
        "name": "Alpenstoff", 
        "location": "Bad Reichenhall"
    }
},
{
    "pk": 51, 
    "model": "bier.beer", 
    "fields": {
        "brew": "pils", 
        "brand": "Dortmunder Actien-Brauerei", 
        "name": "DAB", 
        "location": "Dortmund"
    }
},
{
    "pk": 52, 
    "model": "bier.beer", 
    "fields": {
        "brew": "pils", 
        "brand": "Spaten-Franziskaner-Br\u00e4u", 
        "name": "Franziskaner", 
        "location": "M\u00fcnchen"
    }
},
{
    "pk": 53, 
    "model": "bier.beer", 
    "fields": {
        "brew": "pils", 
        "brand": "Wick\u00fcler Brauerei", 
        "name": "Wick\u00fcler", 
        "location": "Dortmund"
    }
},
{
    "pk": 54, 
    "model": "bier.beer", 
    "fields": {
        "brew": "pils", 
        "brand": "Bergmann Brauerei", 
        "name": "Bergmann Pils", 
        "location": "Dortmund"
    }
},
{
    "pk": 55, 
    "model": "bier.beer", 
    "fields": {
        "brew": "pils", 
        "brand": "Bergmann Brauerei", 
        "name": "Bergmann Spezial II", 
        "location": "Dortmund"
    }
},
{
    "pk": 56, 
    "model": "bier.beer", 
    "fields": {
        "brew": "export", 
        "brand": "Bergmann Brauerei", 
        "name": "Bergmann Export II", 
        "location": "Dortmund"
    }
},
{
    "pk": 57, 
    "model": "bier.beer", 
    "fields": {
        "brew": "pils", 
        "brand": "Bergmann Brauerei", 
        "name": "Bergmann Schwarzbier", 
        "location": "Dortmund"
    }
},
{
    "pk": 58, 
    "model": "bier.beer", 
    "fields": {
        "brew": "export", 
        "brand": "Spaten-Franziskaner-Br\u00e4u", 
        "name": "Spaten Helles", 
        "location": "M\u00fcnchen"
    }
},
{
    "pk": 59, 
    "model": "bier.beer", 
    "fields": {
        "brew": "pils", 
        "brand": "Grupo Modelo", 
        "name": "Corona", 
        "location": "Mexiko"
    }
},
{
    "pk": 60, 
    "model": "bier.beer", 
    "fields": {
        "brew": "pils", 
        "brand": "F\u00f6rster & Brecker", 
        "name": "Gutsherren", 
        "location": "Hameln"
    }
},
{
    "pk": 61, 
    "model": "bier.beer", 
    "fields": {
        "brew": "export", 
        "brand": "Union", 
        "name": "Union", 
        "location": "Dortmund"
    }
},
{
    "pk": 62, 
    "model": "bier.beer", 
    "fields": {
        "brew": "pils", 
        "brand": "Flensburger Brauerei Emil Petersen", 
        "name": "Flensburger", 
        "location": "Flensburg"
    }
},
{
    "pk": 63, 
    "model": "bier.beer", 
    "fields": {
        "brew": "pils", 
        "brand": "Krombacher Brauerei", 
        "name": "Krombacher", 
        "location": "Kreuztal"
    }
},
{
    "pk": 64, 
    "model": "bier.beer", 
    "fields": {
        "brew": "pils", 
        "brand": "K\u00f6nig Brauerei", 
        "name": "K\u00f6nig Pilsener", 
        "location": "Duisburg"
    }
},
{
    "pk": 65, 
    "model": "bier.beer", 
    "fields": {
        "brew": "pils", 
        "brand": "Karlsberg Brauerei", 
        "name": "Karlsberg Mixery", 
        "location": "Homburg"
    }
},
{
    "pk": 66, 
    "model": "bier.beer", 
    "fields": {
        "brew": "pils", 
        "brand": "Brauerei Beck", 
        "name": "Beck's Gold", 
        "location": "Bremen"
    }
},
{
    "pk": 1, 
    "model": "bier.comment", 
    "fields": {
        "comment": "hallo ihr fixer", 
        "kiosk": 6, 
        "name": "Anonymer Alkoholiker", 
        "created": "2013-05-27T16:05:03Z"
    }
},
{
    "pk": 2, 
    "model": "bier.comment", 
    "fields": {
        "comment": "hallo ihr fixer", 
        "kiosk": 6, 
        "name": "Anonymer Alkoholiker", 
        "created": "2013-05-27T16:06:16Z"
    }
},
{
    "pk": 3, 
    "model": "bier.comment", 
    "fields": {
        "comment": "blagblasd", 
        "kiosk": 10, 
        "name": "horst", 
        "created": "2013-06-02T16:15:45Z"
    }
},
{
    "pk": 3, 
    "model": "bier.beerprice", 
    "fields": {
        "created": "2013-04-21T18:31:52Z", 
        "price": 150, 
        "kiosk": 18, 
        "modified": "2013-04-21T18:31:52Z", 
        "beer": 11, 
        "score": 0.0, 
        "size": 0.5
    }
},
{
    "pk": 12, 
    "model": "bier.beerprice", 
    "fields": {
        "created": "2013-03-13T13:49:54Z", 
        "price": 50, 
        "kiosk": 6, 
        "modified": "2013-04-10T15:58:50Z", 
        "beer": 6, 
        "score": 0.0, 
        "size": 0.5
    }
},
{
    "pk": 13, 
    "model": "bier.beerprice", 
    "fields": {
        "created": "2013-03-13T13:49:56Z", 
        "price": 50, 
        "kiosk": 6, 
        "modified": "2013-04-12T16:46:42Z", 
        "beer": 7, 
        "score": 0.0, 
        "size": 0.5
    }
},
{
    "pk": 14, 
    "model": "bier.beerprice", 
    "fields": {
        "created": "2013-03-30T19:59:48Z", 
        "price": 60, 
        "kiosk": 29, 
        "modified": "2013-04-21T13:20:02Z", 
        "beer": 6, 
        "score": 0.0, 
        "size": 0.5
    }
},
{
    "pk": 15, 
    "model": "bier.beerprice", 
    "fields": {
        "created": "2013-03-30T19:59:48Z", 
        "price": 50, 
        "kiosk": 29, 
        "modified": "2013-04-08T19:29:12Z", 
        "beer": 7, 
        "score": 0.0, 
        "size": 0.5
    }
},
{
    "pk": 16, 
    "model": "bier.beerprice", 
    "fields": {
        "created": "2013-04-08T19:15:48Z", 
        "price": 100, 
        "kiosk": 18, 
        "modified": "2013-04-10T16:21:46Z", 
        "beer": 8, 
        "score": 0.0, 
        "size": 0.5
    }
},
{
    "pk": 17, 
    "model": "bier.beerprice", 
    "fields": {
        "created": "2013-04-08T19:19:05Z", 
        "price": 100, 
        "kiosk": 18, 
        "modified": "2013-04-10T16:21:37Z", 
        "beer": 9, 
        "score": 0.0, 
        "size": 0.5
    }
},
{
    "pk": 18, 
    "model": "bier.beerprice", 
    "fields": {
        "created": "2013-04-08T19:20:41Z", 
        "price": 60, 
        "kiosk": 10, 
        "modified": "2013-04-13T21:25:50Z", 
        "beer": 6, 
        "score": 0.0, 
        "size": 0.5
    }
},
{
    "pk": 19, 
    "model": "bier.beerprice", 
    "fields": {
        "created": "2013-04-08T19:29:37Z", 
        "price": 50, 
        "kiosk": 9, 
        "modified": "2013-04-11T13:52:11Z", 
        "beer": 6, 
        "score": 0.0, 
        "size": 0.5
    }
},
{
    "pk": 20, 
    "model": "bier.beerprice", 
    "fields": {
        "created": "2013-04-08T19:31:48Z", 
        "price": 60, 
        "kiosk": 18, 
        "modified": "2013-04-12T20:41:11Z", 
        "beer": 6, 
        "score": 0.0, 
        "size": 0.5
    }
},
{
    "pk": 21, 
    "model": "bier.beerprice", 
    "fields": {
        "created": "2013-04-08T20:05:32Z", 
        "price": 100, 
        "kiosk": 6, 
        "modified": "2013-04-08T20:05:32Z", 
        "beer": 5, 
        "score": 0.0, 
        "size": 0.5
    }
},
{
    "pk": 22, 
    "model": "bier.beerprice", 
    "fields": {
        "created": "2013-04-10T17:26:20Z", 
        "price": 100, 
        "kiosk": 18, 
        "modified": "2013-04-10T17:26:20Z", 
        "beer": 5, 
        "score": 0.0, 
        "size": 0.5
    }
},
{
    "pk": 24, 
    "model": "bier.beerprice", 
    "fields": {
        "created": "2013-04-15T20:33:00Z", 
        "price": 165, 
        "kiosk": 33, 
        "modified": "2013-04-21T13:45:53Z", 
        "beer": 6, 
        "score": 0.0, 
        "size": 0.5
    }
},
{
    "pk": 25, 
    "model": "bier.beerprice", 
    "fields": {
        "created": "2013-04-21T13:28:22Z", 
        "price": 150, 
        "kiosk": 18, 
        "modified": "2013-04-21T13:28:22Z", 
        "beer": 17, 
        "score": 0.0, 
        "size": 0.5
    }
},
{
    "pk": 26, 
    "model": "bier.beerprice", 
    "fields": {
        "created": "2013-04-21T13:45:35Z", 
        "price": 200, 
        "kiosk": 33, 
        "modified": "2013-04-21T13:45:35Z", 
        "beer": 17, 
        "score": 0.0, 
        "size": 0.5
    }
},
{
    "pk": 27, 
    "model": "bier.beerprice", 
    "fields": {
        "created": "2013-04-21T13:48:54Z", 
        "price": 100, 
        "kiosk": 29, 
        "modified": "2013-04-21T13:48:54Z", 
        "beer": 63, 
        "score": 0.0, 
        "size": 0.5
    }
},
{
    "pk": 28, 
    "model": "bier.beerprice", 
    "fields": {
        "created": "2013-05-21T14:23:51Z", 
        "price": 123, 
        "kiosk": 10, 
        "modified": "2013-05-21T14:23:51Z", 
        "beer": 17, 
        "score": 246.0, 
        "size": 0.5
    }
},
{
    "pk": 1, 
    "model": "bier.image", 
    "fields": {
        "image": "images/13_1.jpg", 
        "kiosk": 44
    }
},
{
    "pk": 6, 
    "model": "bier.image", 
    "fields": {
        "image": "images/1_2.jpg", 
        "kiosk": 10
    }
},
{
    "pk": 7, 
    "model": "bier.image", 
    "fields": {
        "image": "images/1_3.jpg", 
        "kiosk": 10
    }
},
{
    "pk": 8, 
    "model": "bier.image", 
    "fields": {
        "image": "images/1qriungu6w.jpg", 
        "kiosk": 52
    }
}
]
